{
  "type": "FeatureCollection",
  "generator": "overpass-turbo",
  "copyright": "The data included in this document is from www.openstreetmap.org. The data is made available under ODbL.",
  "timestamp": "2025-09-14T17:39:56Z",
  "features": [
    {
      "type": "Feature",
      "properties": {
        "@id": "way/22834949",
        "highway": "secondary",
        "name": "Hapur Road",
        "oneway": "yes",
        "ref:old": "NH24",
        "@geometry": "center"
      },
      "geometry": {
        "type": "Point",
        "coordinates": [
          77.4273031,
          28.6697136
        ]
      },
      "id": "way/22834949"
    },
    {
      "type": "Feature",
      "properties": {
        "@id": "way/22834950",
        "highway": "secondary",
        "name": "Hapur Road",
        "oneway": "yes",
        "ref:old": "NH24",
        "@geometry": "center"
      },
      "geometry": {
        "type": "Point",
        "coordinates": [
          77.4242343,
          28.6677408
        ]
      },
      "id": "way/22834950"
    },
    {
      "type": "Feature",
      "properties": {
        "@id": "way/23080106",
        "highway": "secondary",
        "lanes": "6",
        "name": "Sector Road to Sector 56",
        "oneway": "yes",
        "surface": "paved",
        "@geometry": "center"
      },
      "geometry": {
        "type": "Point",
        "coordinates": [
          77.0888313,
          28.4984549
        ]
      },
      "id": "way/23080106"
    },
    {
      "type": "Feature",
      "properties": {
        "@id": "way/23089147",
        "highway": "secondary",
        "lanes": "2",
        "name": "Mahatma Gandhi Marg",
        "name:etymology:wikidata": "Q1001",
        "oneway": "yes",
        "surface": "asphalt",
        "@geometry": "center"
      },
      "geometry": {
        "type": "Point",
        "coordinates": [
          77.1772506,
          28.7092009
        ]
      },
      "id": "way/23089147"
    },
    {
      "type": "Feature",
      "properties": {
        "@id": "way/23098685",
        "highway": "secondary",
        "highway_1": "footway",
        "lanes": "2",
        "maxspeed": "40",
        "name": "Sector Road",
        "oneway": "yes",
        "surface": "asphalt",
        "@geometry": "center"
      },
      "geometry": {
        "type": "Point",
        "coordinates": [
          77.0648099,
          28.4634238
        ]
      },
      "id": "way/23098685"
    },
    {
      "type": "Feature",
      "properties": {
        "@id": "way/23133709",
        "highway": "secondary",
        "junction": "roundabout",
        "name": "Outer Circle",
        "name:hi": "आउटर सर्किल",
        "oneway": "yes",
        "surface": "asphalt",
        "@geometry": "center"
      },
      "geometry": {
        "type": "Point",
        "coordinates": [
          77.2202013,
          28.6299826
        ]
      },
      "id": "way/23133709"
    },
    {
      "type": "Feature",
      "properties": {
        "@id": "way/23134098",
        "highway": "secondary",
        "motorroad": "no",
        "oneway": "yes",
        "@geometry": "center"
      },
      "geometry": {
        "type": "Point",
        "coordinates": [
          77.2291915,
          28.6138719
        ]
      },
      "id": "way/23134098"
    },
    {
      "type": "Feature",
      "properties": {
        "@id": "way/23134630",
        "highway": "secondary",
        "lit": "yes",
        "oneway": "yes",
        "@geometry": "center"
      },
      "geometry": {
        "type": "Point",
        "coordinates": [
          77.2405335,
          28.6223924
        ]
      },
      "id": "way/23134630"
    },
    {
      "type": "Feature",
      "properties": {
        "@id": "way/23134680",
        "highway": "secondary",
        "lanes": "2",
        "name": "Pandara Road",
        "name:hi": "पांडारा रोड",
        "oneway": "yes",
        "surface": "asphalt",
        "@geometry": "center"
      },
      "geometry": {
        "type": "Point",
        "coordinates": [
          77.2309624,
          28.6062848
        ]
      },
      "id": "way/23134680"
    },
    {
      "type": "Feature",
      "properties": {
        "@id": "way/23134734",
        "highway": "secondary",
        "junction": "roundabout",
        "lane_markings": "no",
        "name": "Windsor Place",
        "name:hi": "विंडसर प्लेस",
        "surface": "asphalt",
        "@geometry": "center"
      },
      "geometry": {
        "type": "Point",
        "coordinates": [
          77.2192246,
          28.6196796
        ]
      },
      "id": "way/23134734"
    },
    {
      "type": "Feature",
      "properties": {
        "@id": "way/23134751",
        "highway": "secondary",
        "name": "Mother Teresa Crescent",
        "name:etymology:wikidata": "Q30547",
        "name:hi": "मदर टेरेसा क्रेसेंट",
        "oneway": "yes",
        "surface": "asphalt",
        "@geometry": "center"
      },
      "geometry": {
        "type": "Point",
        "coordinates": [
          77.1950671,
          28.6074463
        ]
      },
      "id": "way/23134751"
    },
    {
      "type": "Feature",
      "properties": {
        "@id": "way/23138288",
        "highway": "secondary",
        "name": "Lala Lajpat Rai Path",
        "name:etymology:wikidata": "Q1395763",
        "oneway": "yes",
        "@geometry": "center"
      },
      "geometry": {
        "type": "Point",
        "coordinates": [
          77.2404572,
          28.5952485
        ]
      },
      "id": "way/23138288"
    },
    {
      "type": "Feature",
      "properties": {
        "@id": "way/23138296",
        "highway": "secondary",
        "name": "Rd. No. 224",
        "oneway": "yes",
        "@geometry": "center"
      },
      "geometry": {
        "type": "Point",
        "coordinates": [
          77.0706194,
          28.5927387
        ]
      },
      "id": "way/23138296"
    },
    {
      "type": "Feature",
      "properties": {
        "@id": "way/23151254",
        "bicycle": "yes",
        "foot": "yes",
        "highway": "secondary",
        "name": "Subramaniyam Bharti Marg",
        "name:etymology:wikidata": "Q256286",
        "oneway": "yes",
        "surface": "asphalt",
        "@geometry": "center"
      },
      "geometry": {
        "type": "Point",
        "coordinates": [
          77.2397796,
          28.6069798
        ]
      },
      "id": "way/23151254"
    },
    {
      "type": "Feature",
      "properties": {
        "@id": "way/23197679",
        "highway": "secondary",
        "lanes": "3",
        "maxspeed": "50",
        "name": "Netaji Subhash Chandra Bose Road",
        "name:etymology:wikidata": "Q2153",
        "oneway": "yes",
        "surface": "asphalt",
        "@geometry": "center"
      },
      "geometry": {
        "type": "Point",
        "coordinates": [
          77.0579052,
          28.4435136
        ]
      },
      "id": "way/23197679"
    },
    {
      "type": "Feature",
      "properties": {
        "@id": "way/23197680",
        "highway": "secondary",
        "lanes": "3",
        "maxspeed": "50",
        "name": "Netaji Subhash Chandra Bose Road",
        "name:etymology:wikidata": "Q2153",
        "oneway": "yes",
        "surface": "asphalt",
        "@geometry": "center"
      },
      "geometry": {
        "type": "Point",
        "coordinates": [
          77.0602766,
          28.4463465
        ]
      },
      "id": "way/23197680"
    },
    {
      "type": "Feature",
      "properties": {
        "@id": "way/23240459",
        "highway": "secondary",
        "name": "Old Delhi Gurgaon Road",
        "oneway": "yes",
        "@geometry": "center"
      },
      "geometry": {
        "type": "Point",
        "coordinates": [
          77.0361214,
          28.4667559
        ]
      },
      "id": "way/23240459"
    },
    {
      "type": "Feature",
      "properties": {
        "@id": "way/23257129",
        "highway": "secondary",
        "surface": "asphalt",
        "@geometry": "center"
      },
      "geometry": {
        "type": "Point",
        "coordinates": [
          77.0926901,
          28.5258041
        ]
      },
      "id": "way/23257129"
    },
    {
      "type": "Feature",
      "properties": {
        "@id": "way/24496133",
        "highway": "secondary",
        "lanes": "3",
        "maxspeed": "50",
        "oneway": "yes",
        "@geometry": "center"
      },
      "geometry": {
        "type": "Point",
        "coordinates": [
          77.0268599,
          28.4289644
        ]
      },
      "id": "way/24496133"
    },
    {
      "type": "Feature",
      "properties": {
        "@id": "way/24496148",
        "highway": "secondary",
        "name": "Chowdhury Baktawar Singh Road",
        "oneway": "yes",
        "@geometry": "center"
      },
      "geometry": {
        "type": "Point",
        "coordinates": [
          77.044717,
          28.4380984
        ]
      },
      "id": "way/24496148"
    },
    {
      "type": "Feature",
      "properties": {
        "@id": "way/24496235",
        "highway": "secondary",
        "lanes": "2",
        "name": "Nirvana Road",
        "oneway": "yes",
        "surface": "asphalt",
        "@geometry": "center"
      },
      "geometry": {
        "type": "Point",
        "coordinates": [
          77.0665257,
          28.4190885
        ]
      },
      "id": "way/24496235"
    },
    {
      "type": "Feature",
      "properties": {
        "@id": "way/24501893",
        "highway": "secondary",
        "name": "Shaheed Major Vikas Yadav Marg",
        "oneway": "yes",
        "surface": "asphalt",
        "@geometry": "center"
      },
      "geometry": {
        "type": "Point",
        "coordinates": [
          77.0394534,
          28.4541319
        ]
      },
      "id": "way/24501893"
    },
    {
      "type": "Feature",
      "properties": {
        "@id": "way/24501897",
        "highway": "secondary",
        "name": "Shaheed Major Vikas Yadav Marg",
        "oneway": "yes",
        "surface": "asphalt",
        "@geometry": "center"
      },
      "geometry": {
        "type": "Point",
        "coordinates": [
          77.0388704,
          28.4547798
        ]
      },
      "id": "way/24501897"
    },
    {
      "type": "Feature",
      "properties": {
        "@id": "way/24501910",
        "highway": "secondary",
        "name": "Shaheed Major Vikas Yadav Marg",
        "oneway": "yes",
        "surface": "asphalt",
        "@geometry": "center"
      },
      "geometry": {
        "type": "Point",
        "coordinates": [
          77.0358072,
          28.4576366
        ]
      },
      "id": "way/24501910"
    },
    {
      "type": "Feature",
      "properties": {
        "@id": "way/24514670",
        "highway": "secondary",
        "oneway": "yes",
        "@geometry": "center"
      },
      "geometry": {
        "type": "Point",
        "coordinates": [
          77.0322829,
          28.4602472
        ]
      },
      "id": "way/24514670"
    },
    {
      "type": "Feature",
      "properties": {
        "@id": "way/24514935",
        "highway": "secondary",
        "oneway": "yes",
        "@geometry": "center"
      },
      "geometry": {
        "type": "Point",
        "coordinates": [
          77.0560036,
          28.4729327
        ]
      },
      "id": "way/24514935"
    },
    {
      "type": "Feature",
      "properties": {
        "@id": "way/24515335",
        "highway": "secondary",
        "maxspeed": "50",
        "oneway": "yes",
        "@geometry": "center"
      },
      "geometry": {
        "type": "Point",
        "coordinates": [
          77.0432873,
          28.4315577
        ]
      },
      "id": "way/24515335"
    },
    {
      "type": "Feature",
      "properties": {
        "@id": "way/24515346",
        "highway": "secondary",
        "junction": "roundabout",
        "lane_markings": "no",
        "surface": "asphalt",
        "@geometry": "center"
      },
      "geometry": {
        "type": "Point",
        "coordinates": [
          77.0493125,
          28.4345827
        ]
      },
      "id": "way/24515346"
    },
    {
      "type": "Feature",
      "properties": {
        "@id": "way/24515353",
        "highway": "secondary",
        "name": "Chowdhury Baktawar Singh Road",
        "oneway": "yes",
        "@geometry": "center"
      },
      "geometry": {
        "type": "Point",
        "coordinates": [
          77.0431765,
          28.4391187
        ]
      },
      "id": "way/24515353"
    },
    {
      "type": "Feature",
      "properties": {
        "@id": "way/24515425",
        "alt_name": "Netaji Subhash Chandra Bose Road",
        "alt_name:etymology:wikidata": "Q2153",
        "bridge": "yes",
        "highway": "secondary",
        "layer": "1",
        "maxspeed": "50",
        "name": "Flyover",
        "oneway": "yes",
        "@geometry": "center"
      },
      "geometry": {
        "type": "Point",
        "coordinates": [
          77.0729027,
          28.4585109
        ]
      },
      "id": "way/24515425"
    },
    {
      "type": "Feature",
      "properties": {
        "@id": "way/24520729",
        "highway": "secondary",
        "maxspeed": "40",
        "name": "South City II",
        "oneway": "yes",
        "@geometry": "center"
      },
      "geometry": {
        "type": "Point",
        "coordinates": [
          77.0428598,
          28.4181105
        ]
      },
      "id": "way/24520729"
    },
    {
      "type": "Feature",
      "properties": {
        "@id": "way/24537423",
        "highway": "secondary",
        "lanes": "2",
        "name": "Sardar Patel Marg",
        "name:etymology:wikidata": "Q9455",
        "name:hi": "सरदार पटेल मार्ग",
        "name:ur": "سردار پٹیل مارگ",
        "oneway": "yes",
        "surface": "asphalt",
        "@geometry": "center"
      },
      "geometry": {
        "type": "Point",
        "coordinates": [
          77.184094,
          28.6040028
        ]
      },
      "id": "way/24537423"
    },
    {
      "type": "Feature",
      "properties": {
        "@id": "way/24563012",
        "highway": "secondary",
        "junction": "roundabout",
        "name": "Lieutenant Atul Katariya Chowk",
        "oneway": "yes",
        "surface": "asphalt",
        "@geometry": "center"
      },
      "geometry": {
        "type": "Point",
        "coordinates": [
          77.0489549,
          28.4813789
        ]
      },
      "id": "way/24563012"
    },
    {
      "type": "Feature",
      "properties": {
        "@id": "way/24563335",
        "alt_name": "Mathura Road",
        "alt_name:etymology:wikidata": "Q200311",
        "bridge": "yes",
        "highway": "secondary",
        "lanes": "3",
        "layer": "1",
        "motorroad": "no",
        "name": "Oberoi Flyover",
        "oneway": "yes",
        "surface": "asphalt",
        "@geometry": "center"
      },
      "geometry": {
        "type": "Point",
        "coordinates": [
          77.2418622,
          28.5955438
        ]
      },
      "id": "way/24563335"
    },
    {
      "type": "Feature",
      "properties": {
        "@id": "way/24563336",
        "highway": "secondary",
        "name": "Lodhi Road",
        "oneway": "yes",
        "surface": "asphalt",
        "wikidata": "Q6666365",
        "@geometry": "center"
      },
      "geometry": {
        "type": "Point",
        "coordinates": [
          77.2263153,
          28.5908028
        ]
      },
      "id": "way/24563336"
    },
    {
      "type": "Feature",
      "properties": {
        "@id": "way/24563338",
        "highway": "secondary",
        "maxheight:signed": "no",
        "name": "Lala Lajpat Rai Path",
        "name:etymology:wikidata": "Q1395763",
        "oneway": "yes",
        "surface": "asphalt",
        "@geometry": "center"
      },
      "geometry": {
        "type": "Point",
        "coordinates": [
          77.2365865,
          28.5714961
        ]
      },
      "id": "way/24563338"
    },
    {
      "type": "Feature",
      "properties": {
        "@id": "way/24563348",
        "highway": "secondary",
        "name": "Lodhi Road",
        "oneway": "yes",
        "surface": "asphalt",
        "@geometry": "center"
      },
      "geometry": {
        "type": "Point",
        "coordinates": [
          77.2345108,
          28.5920145
        ]
      },
      "id": "way/24563348"
    },
    {
      "type": "Feature",
      "properties": {
        "@id": "way/24563431",
        "highway": "secondary",
        "lanes": "2",
        "oneway": "yes",
        "surface": "asphalt",
        "@geometry": "center"
      },
      "geometry": {
        "type": "Point",
        "coordinates": [
          77.2275645,
          28.6145047
        ]
      },
      "id": "way/24563431"
    },
    {
      "type": "Feature",
      "properties": {
        "@id": "way/24563432",
        "highway": "secondary",
        "lanes": "2",
        "name": "Ashoka Road",
        "name:etymology:wikidata": "Q8589",
        "name:hi": "अशोक रोड",
        "oneway": "yes",
        "smoothness": "good",
        "surface": "asphalt",
        "@geometry": "center"
      },
      "geometry": {
        "type": "Point",
        "coordinates": [
          77.2262874,
          28.6155448
        ]
      },
      "id": "way/24563432"
    },
    {
      "type": "Feature",
      "properties": {
        "@id": "way/24563435",
        "highway": "secondary",
        "lanes": "2",
        "name": "Akbar Road",
        "name:etymology:wikidata": "Q8597",
        "name:hi": "अकबर रोड",
        "name:kn": "ಅಕ್ಬರ್ ರಸ್ತೆ",
        "name:ur": "اکبر روڈ",
        "oneway": "yes",
        "surface": "asphalt",
        "@geometry": "center"
      },
      "geometry": {
        "type": "Point",
        "coordinates": [
          77.2265391,
          28.610482
        ]
      },
      "id": "way/24563435"
    },
    {
      "type": "Feature",
      "properties": {
        "@id": "way/24563446",
        "highway": "secondary",
        "name": "Sher Shah Road",
        "name:etymology:wikidata": "Q83680",
        "oneway": "yes",
        "surface": "asphalt",
        "@geometry": "center"
      },
      "geometry": {
        "type": "Point",
        "coordinates": [
          77.2347118,
          28.6110516
        ]
      },
      "id": "way/24563446"
    },
    {
      "type": "Feature",
      "properties": {
        "@id": "way/24563447",
        "highway": "secondary",
        "lane_markings": "no",
        "name": "Sher Shah Road",
        "name:etymology:wikidata": "Q83680",
        "oneway": "yes",
        "surface": "asphalt",
        "@geometry": "center"
      },
      "geometry": {
        "type": "Point",
        "coordinates": [
          77.2344747,
          28.6107107
        ]
      },
      "id": "way/24563447"
    },
    {
      "type": "Feature",
      "properties": {
        "@id": "way/24563449",
        "highway": "secondary",
        "junction": "roundabout",
        "name": "rotary no 4",
        "surface": "asphalt",
        "@geometry": "center"
      },
      "geometry": {
        "type": "Point",
        "coordinates": [
          77.2250077,
          28.6163771
        ]
      },
      "id": "way/24563449"
    },
    {
      "type": "Feature",
      "properties": {
        "@id": "way/24568307",
        "highway": "secondary",
        "lanes": "3",
        "maxspeed": "50",
        "name": "Golf Course Road",
        "oneway": "yes",
        "surface": "paved",
        "@geometry": "center"
      },
      "geometry": {
        "type": "Point",
        "coordinates": [
          77.0938082,
          28.4734094
        ]
      },
      "id": "way/24568307"
    },
    {
      "type": "Feature",
      "properties": {
        "@id": "way/24569506",
        "highway": "secondary",
        "lanes": "2",
        "maxspeed": "50",
        "oneway": "yes",
        "@geometry": "center"
      },
      "geometry": {
        "type": "Point",
        "coordinates": [
          77.0980835,
          28.4307321
        ]
      },
      "id": "way/24569506"
    },
    {
      "type": "Feature",
      "properties": {
        "@id": "way/24576720",
        "highway": "secondary",
        "lanes": "2",
        "name": "Teen Murti Marg",
        "name:etymology:wikidata": "Q3595320",
        "name:hi": "तीन मूर्ति मार्ग",
        "name:ur": "تین مورتی مارگ",
        "oneway": "yes",
        "surface": "asphalt",
        "@geometry": "center"
      },
      "geometry": {
        "type": "Point",
        "coordinates": [
          77.1974941,
          28.6040342
        ]
      },
      "id": "way/24576720"
    },
    {
      "type": "Feature",
      "properties": {
        "@id": "way/24576724",
        "highway": "secondary",
        "lanes": "2",
        "name": "Panchsheel Marg",
        "name:hi": "पंचशील मार्ग",
        "name:ur": "پنچ شیل مارگ",
        "oneway": "yes",
        "surface": "asphalt",
        "@geometry": "center"
      },
      "geometry": {
        "type": "Point",
        "coordinates": [
          77.1921531,
          28.5965019
        ]
      },
      "id": "way/24576724"
    },
    {
      "type": "Feature",
      "properties": {
        "@id": "way/24576740",
        "highway": "secondary",
        "name": "Shanti Path",
        "name:hi": "शांति पथ",
        "name:ur": "شانتی پتھ",
        "oneway": "yes",
        "@geometry": "center"
      },
      "geometry": {
        "type": "Point",
        "coordinates": [
          77.1842608,
          28.5846833
        ]
      },
      "id": "way/24576740"
    },
    {
      "type": "Feature",
      "properties": {
        "@id": "way/24576748",
        "alt_name:ur": "ونئے مارگ",
        "highway": "secondary",
        "name": "Vinay Marg",
        "name:hi": "विनय मार्ग",
        "name:ur": "ونے مارگ",
        "oneway": "yes",
        "@geometry": "center"
      },
      "geometry": {
        "type": "Point",
        "coordinates": [
          77.1944765,
          28.5902828
        ]
      },
      "id": "way/24576748"
    },
    {
      "type": "Feature",
      "properties": {
        "@id": "way/24576752",
        "alt_name:ur": "ونئے مارگ",
        "highway": "secondary",
        "name": "Vinay Marg",
        "name:hi": "विनय मार्ग",
        "name:ur": "ونے مارگ",
        "oneway": "yes",
        "@geometry": "center"
      },
      "geometry": {
        "type": "Point",
        "coordinates": [
          77.1924381,
          28.5840861
        ]
      },
      "id": "way/24576752"
    },
    {
      "type": "Feature",
      "properties": {
        "@id": "way/24576804",
        "highway": "secondary",
        "lanes": "3",
        "name": "Road 224",
        "oneway": "yes",
        "@geometry": "center"
      },
      "geometry": {
        "type": "Point",
        "coordinates": [
          77.0627069,
          28.582961
        ]
      },
      "id": "way/24576804"
    },
    {
      "type": "Feature",
      "properties": {
        "@id": "way/24576807",
        "highway": "secondary",
        "name": "Road 201",
        "oneway": "yes",
        "@geometry": "center"
      },
      "geometry": {
        "type": "Point",
        "coordinates": [
          77.0323783,
          28.5902926
        ]
      },
      "id": "way/24576807"
    },
    {
      "type": "Feature",
      "properties": {
        "@id": "way/24576821",
        "cycleway:both": "no",
        "highway": "secondary",
        "lit": "yes",
        "name": "Azad Hind Fauj Marg",
        "name:etymology:wikidata": "Q156062",
        "oneway": "yes",
        "sidewalk:left": "yes",
        "surface": "asphalt",
        "@geometry": "center"
      },
      "geometry": {
        "type": "Point",
        "coordinates": [
          77.0335716,
          28.6122846
        ]
      },
      "id": "way/24576821"
    },
    {
      "type": "Feature",
      "properties": {
        "@id": "way/24577095",
        "highway": "secondary",
        "lanes": "2",
        "name": "Ashoka Road",
        "name:etymology:wikidata": "Q8589",
        "name:hi": "अशोक रोड",
        "oneway": "yes",
        "surface": "asphalt",
        "@geometry": "center"
      },
      "geometry": {
        "type": "Point",
        "coordinates": [
          77.2219908,
          28.6179835
        ]
      },
      "id": "way/24577095"
    },
    {
      "type": "Feature",
      "properties": {
        "@id": "way/24577096",
        "highway": "secondary",
        "lanes": "2",
        "name": "Janpath",
        "name:hi": "जनपथ",
        "name:ml": "ജനപഥ്",
        "old_name": "Queensway",
        "oneway": "yes",
        "surface": "asphalt",
        "wikidata": "Q3635068",
        "wikipedia": "en:Janpath",
        "@geometry": "center"
      },
      "geometry": {
        "type": "Point",
        "coordinates": [
          77.2190542,
          28.6233693
        ]
      },
      "id": "way/24577096"
    },
    {
      "type": "Feature",
      "properties": {
        "@id": "way/24577097",
        "highway": "secondary",
        "lanes": "2",
        "name": "Janpath",
        "name:hi": "जनपथ",
        "name:ml": "ജനപഥ്",
        "old_name": "Queensway",
        "oneway": "yes",
        "surface": "asphalt",
        "wikidata": "Q3635068",
        "wikipedia": "en:Janpath",
        "@geometry": "center"
      },
      "geometry": {
        "type": "Point",
        "coordinates": [
          77.2187098,
          28.6180716
        ]
      },
      "id": "way/24577097"
    },
    {
      "type": "Feature",
      "properties": {
        "@id": "way/24577101",
        "highway": "secondary",
        "junction": "roundabout",
        "name": "Raisina Road",
        "name:etymology:wikidata": "Q3630462",
        "name:hi": "रायसीना रोड",
        "@geometry": "center"
      },
      "geometry": {
        "type": "Point",
        "coordinates": [
          77.2120605,
          28.6171944
        ]
      },
      "id": "way/24577101"
    },
    {
      "type": "Feature",
      "properties": {
        "@id": "way/24577106",
        "highway": "secondary",
        "lanes": "4",
        "name": "Raisina Road",
        "name:etymology:wikidata": "Q3630462",
        "surface": "asphalt",
        "@geometry": "center"
      },
      "geometry": {
        "type": "Point",
        "coordinates": [
          77.2158702,
          28.618553
        ]
      },
      "id": "way/24577106"
    },
    {
      "type": "Feature",
      "properties": {
        "@id": "way/24577121",
        "highway": "secondary",
        "junction": "roundabout",
        "motorroad": "no",
        "name": "rotary no 5",
        "oneway": "yes",
        "surface": "asphalt",
        "@geometry": "center"
      },
      "geometry": {
        "type": "Point",
        "coordinates": [
          77.2271648,
          28.6197393
        ]
      },
      "id": "way/24577121"
    },
    {
      "type": "Feature",
      "properties": {
        "@id": "way/24577131",
        "highway": "secondary",
        "name": "Rafi Ahmed Kidwai Marg",
        "name:etymology:wikidata": "Q7282619",
        "name:hi": "रफी अहमद किदवई मार्ग",
        "oneway": "yes",
        "surface": "asphalt",
        "@geometry": "center"
      },
      "geometry": {
        "type": "Point",
        "coordinates": [
          77.2124314,
          28.6164774
        ]
      },
      "id": "way/24577131"
    },
    {
      "type": "Feature",
      "properties": {
        "@id": "way/24577372",
        "highway": "secondary",
        "lanes": "2",
        "name": "Pandara Road",
        "name:hi": "पांडारा रोड",
        "oneway": "yes",
        "surface": "asphalt",
        "@geometry": "center"
      },
      "geometry": {
        "type": "Point",
        "coordinates": [
          77.2306109,
          28.6062924
        ]
      },
      "id": "way/24577372"
    },
    {
      "type": "Feature",
      "properties": {
        "@id": "way/24577379",
        "highway": "secondary",
        "junction": "roundabout",
        "lane_markings": "no",
        "name": "Rotary 13",
        "name:ur": "روٹری نمبر 13",
        "oneway": "yes",
        "surface": "asphalt",
        "@geometry": "center"
      },
      "geometry": {
        "type": "Point",
        "coordinates": [
          77.2237071,
          28.603561
        ]
      },
      "id": "way/24577379"
    },
    {
      "type": "Feature",
      "properties": {
        "@id": "way/24577383",
        "highway": "secondary",
        "lanes": "2",
        "name": "Janpath",
        "name:hi": "जनपथ",
        "name:ml": "ജനപഥ്",
        "old_name": "Queensway",
        "oneway": "yes",
        "surface": "asphalt",
        "wikidata": "Q3635068",
        "wikipedia": "en:Janpath",
        "@geometry": "center"
      },
      "geometry": {
        "type": "Point",
        "coordinates": [
          77.2180594,
          28.6089196
        ]
      },
      "id": "way/24577383"
    },
    {
      "type": "Feature",
      "properties": {
        "@id": "way/24577384",
        "highway": "secondary",
        "lanes": "2",
        "name": "Janpath",
        "name:hi": "जनपथ",
        "name:ml": "ജനപഥ്",
        "oneway": "yes",
        "surface": "asphalt",
        "wikidata": "Q3635068",
        "wikipedia": "en:Janpath",
        "@geometry": "center"
      },
      "geometry": {
        "type": "Point",
        "coordinates": [
          77.2182366,
          28.6088932
        ]
      },
      "id": "way/24577384"
    },
    {
      "type": "Feature",
      "properties": {
        "@id": "way/24577385",
        "highway": "secondary",
        "lane_markings": "no",
        "name": "Akbar Road",
        "name:etymology:wikidata": "Q8597",
        "name:hi": "अकबर रोड",
        "name:kn": "ಅಕ್ಬರ್ ರಸ್ತೆ",
        "name:ur": "اکبر روڈ",
        "oneway": "yes",
        "smoothness": "excellent",
        "surface": "asphalt",
        "@geometry": "center"
      },
      "geometry": {
        "type": "Point",
        "coordinates": [
          77.2216667,
          28.6084585
        ]
      },
      "id": "way/24577385"
    },
    {
      "type": "Feature",
      "properties": {
        "@id": "way/24577389",
        "highway": "secondary",
        "lanes": "2",
        "name": "Motilal Nehru Marg",
        "name:etymology:wikidata": "Q380148",
        "name:hi": "मोतीलाल नेहरू मार्ग",
        "name:ur": "موتی لال نہرو مارگ",
        "oneway": "yes",
        "surface": "asphalt",
        "@geometry": "center"
      },
      "geometry": {
        "type": "Point",
        "coordinates": [
          77.2213181,
          28.6053263
        ]
      },
      "id": "way/24577389"
    },
    {
      "type": "Feature",
      "properties": {
        "@id": "way/24577390",
        "foot": "yes",
        "highway": "secondary",
        "lanes": "2",
        "name": "Motilal Nehru Marg",
        "name:etymology:wikidata": "Q380148",
        "name:hi": "मोतीलाल नेहरू मार्ग",
        "name:ur": "موتی لال نہرو مارگ",
        "oneway": "yes",
        "surface": "asphalt",
        "@geometry": "center"
      },
      "geometry": {
        "type": "Point",
        "coordinates": [
          77.2211163,
          28.6050375
        ]
      },
      "id": "way/24577390"
    },
    {
      "type": "Feature",
      "properties": {
        "@id": "way/24577391",
        "highway": "secondary",
        "junction": "roundabout",
        "surface": "asphalt",
        "@geometry": "center"
      },
      "geometry": {
        "type": "Point",
        "coordinates": [
          77.211895,
          28.6102608
        ]
      },
      "id": "way/24577391"
    },
    {
      "type": "Feature",
      "properties": {
        "@id": "way/24577393",
        "highway": "secondary",
        "lanes": "2",
        "name": "Motilal Nehru Marg",
        "name:etymology:wikidata": "Q380148",
        "name:hi": "मोतीलाल नेहरू मार्ग",
        "name:ur": "موتی لال نہرو مارگ",
        "oneway": "yes",
        "surface": "asphalt",
        "@geometry": "center"
      },
      "geometry": {
        "type": "Point",
        "coordinates": [
          77.2147332,
          28.6088938
        ]
      },
      "id": "way/24577393"
    },
    {
      "type": "Feature",
      "properties": {
        "@id": "way/24577395",
        "highway": "secondary",
        "lanes": "1",
        "name": "Motilal Nehru Marg",
        "name:etymology:wikidata": "Q380148",
        "name:hi": "मोतीलाल नेहरू मार्ग",
        "oneway": "yes",
        "surface": "asphalt",
        "width": "6",
        "@geometry": "center"
      },
      "geometry": {
        "type": "Point",
        "coordinates": [
          77.2103165,
          28.6114666
        ]
      },
      "id": "way/24577395"
    },
    {
      "type": "Feature",
      "properties": {
        "@id": "way/24577396",
        "highway": "secondary",
        "junction": "roundabout",
        "name": "Prime Chowk",
        "name:ur": "پرائم چوک",
        "@geometry": "center"
      },
      "geometry": {
        "type": "Point",
        "coordinates": [
          77.2085793,
          28.6087255
        ]
      },
      "id": "way/24577396"
    },
    {
      "type": "Feature",
      "properties": {
        "@id": "way/24577401",
        "highway": "secondary",
        "lanes": "2",
        "name": "Kumaraswami Kamaraj Marg",
        "name:etymology:wikidata": "Q522048",
        "oneway": "yes",
        "short_name": "K. Kamaraj Marg",
        "@geometry": "center"
      },
      "geometry": {
        "type": "Point",
        "coordinates": [
          77.209203,
          28.609219
        ]
      },
      "id": "way/24577401"
    },
    {
      "type": "Feature",
      "properties": {
        "@id": "way/24577404",
        "highway": "secondary",
        "name": "Tu-Tu Marg",
        "name:ur": "ٹو ٹو مارگ",
        "oneway": "yes",
        "surface": "asphalt",
        "@geometry": "center"
      },
      "geometry": {
        "type": "Point",
        "coordinates": [
          77.2070578,
          28.6098979
        ]
      },
      "id": "way/24577404"
    },
    {
      "type": "Feature",
      "properties": {
        "@id": "way/24577478",
        "alt_name": "Parliament Street",
        "highway": "secondary",
        "name": "Sansad Marg",
        "name:etymology:wikidata": "Q15275136",
        "name:hi": "संसद मार्ग",
        "oneway": "yes",
        "surface": "asphalt",
        "@geometry": "center"
      },
      "geometry": {
        "type": "Point",
        "coordinates": [
          77.215975,
          28.6276569
        ]
      },
      "id": "way/24577478"
    },
    {
      "type": "Feature",
      "properties": {
        "@id": "way/24583320",
        "highway": "secondary",
        "junction": "roundabout",
        "lane_markings": "no",
        "name": "Gol Dakkhana Roundabout",
        "name:hi": "गोल डाकखाना चौराहे",
        "old_name": "Alexandra Place",
        "surface": "asphalt",
        "@geometry": "center"
      },
      "geometry": {
        "type": "Point",
        "coordinates": [
          77.2069264,
          28.6264143
        ]
      },
      "id": "way/24583320"
    },
    {
      "type": "Feature",
      "properties": {
        "@id": "way/24583321",
        "highway": "secondary",
        "name": "Ashoka Road",
        "name:etymology:wikidata": "Q8589",
        "name:hi": "अशोक रोड",
        "oneway": "yes",
        "surface": "asphalt",
        "@geometry": "center"
      },
      "geometry": {
        "type": "Point",
        "coordinates": [
          77.2082092,
          28.6261795
        ]
      },
      "id": "way/24583321"
    },
    {
      "type": "Feature",
      "properties": {
        "@id": "way/24583324",
        "highway": "secondary",
        "junction": "roundabout",
        "lane_markings": "no",
        "name": "Patel Chowk",
        "name:hi": "पटेल चौक",
        "surface": "asphalt",
        "@geometry": "center"
      },
      "geometry": {
        "type": "Point",
        "coordinates": [
          77.2124967,
          28.6231183
        ]
      },
      "id": "way/24583324"
    },
    {
      "type": "Feature",
      "properties": {
        "@id": "way/24583327",
        "alt_name": "Parliament Street",
        "highway": "secondary",
        "name": "Sansad Marg",
        "name:etymology:wikidata": "Q15275136",
        "name:hi": "संसद मार्ग",
        "oneway": "yes",
        "surface": "asphalt",
        "@geometry": "center"
      },
      "geometry": {
        "type": "Point",
        "coordinates": [
          77.2142426,
          28.6255388
        ]
      },
      "id": "way/24583327"
    },
    {
      "type": "Feature",
      "properties": {
        "@id": "way/24583330",
        "highway": "secondary",
        "lanes": "2",
        "name": "Baba Kharak Singh Marg",
        "name:etymology:wikidata": "Q4837333",
        "name:hi": "बाबा खड़क सिंह मार्ग",
        "old_name": "Irwin Road",
        "oneway": "yes",
        "surface": "asphalt",
        "@geometry": "center"
      },
      "geometry": {
        "type": "Point",
        "coordinates": [
          77.2124366,
          28.6296063
        ]
      },
      "id": "way/24583330"
    },
    {
      "type": "Feature",
      "properties": {
        "@id": "way/24583332",
        "highway": "secondary",
        "lanes": "3",
        "name": "Baba Kharak Singh Marg",
        "name:etymology:wikidata": "Q4837333",
        "name:hi": "बाबा खड़क सिंह मार्ग",
        "old_name": "Irwin Road",
        "oneway": "yes",
        "surface": "asphalt",
        "@geometry": "center"
      },
      "geometry": {
        "type": "Point",
        "coordinates": [
          77.2120289,
          28.629297
        ]
      },
      "id": "way/24583332"
    },
    {
      "type": "Feature",
      "properties": {
        "@id": "way/24583333",
        "highway": "secondary",
        "junction": "roundabout",
        "lane_markings": "no",
        "name": "Mandi House Chowk",
        "name:etymology:wikidata": "Q16894564",
        "surface": "asphalt",
        "@geometry": "center"
      },
      "geometry": {
        "type": "Point",
        "coordinates": [
          77.2320393,
          28.6259527
        ]
      },
      "id": "way/24583333"
    },
    {
      "type": "Feature",
      "properties": {
        "@id": "way/24583334",
        "highway": "secondary",
        "name": "Ashoka Road",
        "name:etymology:wikidata": "Q8589",
        "name:hi": "अशोक रोड",
        "oneway": "yes",
        "@geometry": "center"
      },
      "geometry": {
        "type": "Point",
        "coordinates": [
          77.2144227,
          28.6225861
        ]
      },
      "id": "way/24583334"
    },
    {
      "type": "Feature",
      "properties": {
        "@id": "way/24583335",
        "highway": "secondary",
        "name": "Ashoka Road",
        "name:etymology:wikidata": "Q8589",
        "name:hi": "अशोक रोड",
        "oneway": "yes",
        "@geometry": "center"
      },
      "geometry": {
        "type": "Point",
        "coordinates": [
          77.2141815,
          28.6224005
        ]
      },
      "id": "way/24583335"
    },
    {
      "type": "Feature",
      "properties": {
        "@id": "way/24583337",
        "highway": "secondary",
        "junction": "roundabout",
        "name": "Ashoka Road",
        "name:etymology:wikidata": "Q8589",
        "name:hi": "अशोक रोड",
        "surface": "asphalt",
        "@geometry": "center"
      },
      "geometry": {
        "type": "Point",
        "coordinates": [
          77.2157984,
          28.6216304
        ]
      },
      "id": "way/24583337"
    },
    {
      "type": "Feature",
      "properties": {
        "@id": "way/24583339",
        "highway": "secondary",
        "lanes": "2",
        "name": "Ashoka Road",
        "name:etymology:wikidata": "Q8589",
        "name:hi": "अशोक रोड",
        "oneway": "yes",
        "surface": "asphalt",
        "@geometry": "center"
      },
      "geometry": {
        "type": "Point",
        "coordinates": [
          77.2173125,
          28.6209296
        ]
      },
      "id": "way/24583339"
    },
    {
      "type": "Feature",
      "properties": {
        "@id": "way/24583771",
        "highway": "secondary",
        "junction": "roundabout",
        "lane_markings": "no",
        "name": "Rotary Number 49",
        "ref": "49",
        "surface": "asphalt",
        "@geometry": "center"
      },
      "geometry": {
        "type": "Point",
        "coordinates": [
          77.2001201,
          28.6236472
        ]
      },
      "id": "way/24583771"
    },
    {
      "type": "Feature",
      "properties": {
        "@id": "way/24583773",
        "highway": "secondary",
        "name": "Mother Teresa Crescent",
        "name:en": "Mother Teresa Crescent",
        "name:etymology:wikidata": "Q30547",
        "name:hi": "मदर टेरेसा क्रेसेंट",
        "oneway": "yes",
        "surface": "asphalt",
        "@geometry": "center"
      },
      "geometry": {
        "type": "Point",
        "coordinates": [
          77.199606,
          28.6237279
        ]
      },
      "id": "way/24583773"
    },
    {
      "type": "Feature",
      "properties": {
        "@id": "way/24584396",
        "highway": "secondary",
        "name": "North Avenue",
        "oneway": "yes",
        "@geometry": "center"
      },
      "geometry": {
        "type": "Point",
        "coordinates": [
          77.2001269,
          28.623279
        ]
      },
      "id": "way/24584396"
    },
    {
      "type": "Feature",
      "properties": {
        "@id": "way/24584397",
        "highway": "secondary",
        "name": "North Avenue",
        "oneway": "yes",
        "surface": "asphalt",
        "@geometry": "center"
      },
      "geometry": {
        "type": "Point",
        "coordinates": [
          77.2000062,
          28.6232876
        ]
      },
      "id": "way/24584397"
    },
    {
      "type": "Feature",
      "properties": {
        "@id": "way/24617971",
        "highway": "secondary",
        "junction": "roundabout",
        "lane_markings": "no",
        "oneway": "yes",
        "surface": "asphalt",
        "@geometry": "center"
      },
      "geometry": {
        "type": "Point",
        "coordinates": [
          77.1931716,
          28.6025378
        ]
      },
      "id": "way/24617971"
    },
    {
      "type": "Feature",
      "properties": {
        "@id": "way/24617983",
        "highway": "secondary",
        "junction": "roundabout",
        "name": "Teen Murti Haifa Chowk",
        "name:etymology:wikidata": "Q3595320",
        "name:hi": "तीन मूर्ति हाइफा चौक",
        "smoothness": "excellent",
        "surface": "asphalt",
        "@geometry": "center"
      },
      "geometry": {
        "type": "Point",
        "coordinates": [
          77.198896,
          28.6046997
        ]
      },
      "id": "way/24617983"
    },
    {
      "type": "Feature",
      "properties": {
        "@id": "way/24617994",
        "highway": "secondary",
        "lanes": "2",
        "name": "Teen Murti Marg",
        "name:etymology:wikidata": "Q3595320",
        "name:hi": "तीन मूर्ति मार्ग",
        "name:ur": "تین مورتی مارگ",
        "oneway": "yes",
        "surface": "asphalt",
        "@geometry": "center"
      },
      "geometry": {
        "type": "Point",
        "coordinates": [
          77.20203,
          28.6030422
        ]
      },
      "id": "way/24617994"
    },
    {
      "type": "Feature",
      "properties": {
        "@id": "way/24618002",
        "highway": "secondary",
        "junction": "roundabout",
        "@geometry": "center"
      },
      "geometry": {
        "type": "Point",
        "coordinates": [
          77.2056072,
          28.6108477
        ]
      },
      "id": "way/24618002"
    },
    {
      "type": "Feature",
      "properties": {
        "@id": "way/24636520",
        "highway": "secondary",
        "oneway": "yes",
        "@geometry": "center"
      },
      "geometry": {
        "type": "Point",
        "coordinates": [
          77.0588687,
          28.4065072
        ]
      },
      "id": "way/24636520"
    },
    {
      "type": "Feature",
      "properties": {
        "@id": "way/24969782",
        "highway": "secondary",
        "lanes": "3",
        "maxspeed": "50",
        "name": "Sunset Boulevard",
        "oneway": "yes",
        "surface": "asphalt",
        "@geometry": "center"
      },
      "geometry": {
        "type": "Point",
        "coordinates": [
          77.1032551,
          28.4722552
        ]
      },
      "id": "way/24969782"
    },
    {
      "type": "Feature",
      "properties": {
        "@id": "way/24969815",
        "alt_name": "Chhattarpur Main Road",
        "highway": "secondary",
        "lanes": "2",
        "maxspeed": "60",
        "name": "Sant Shri Nagpal Marg",
        "oneway": "yes",
        "short_name": "SSN Marg",
        "surface": "asphalt",
        "@geometry": "center"
      },
      "geometry": {
        "type": "Point",
        "coordinates": [
          77.1814393,
          28.4921347
        ]
      },
      "id": "way/24969815"
    },
    {
      "type": "Feature",
      "properties": {
        "@id": "way/25457951",
        "highway": "secondary",
        "lanes": "4",
        "maxspeed": "80",
        "name": "DND Noida Flyover",
        "oneway": "yes",
        "@geometry": "center"
      },
      "geometry": {
        "type": "Point",
        "coordinates": [
          77.3113987,
          28.5729722
        ]
      },
      "id": "way/25457951"
    },
    {
      "type": "Feature",
      "properties": {
        "@id": "way/25524691",
        "highway": "secondary",
        "lanes": "2",
        "maxspeed": "60",
        "name": "Chattarpur Main Road",
        "oneway": "no",
        "surface": "asphalt",
        "@geometry": "center"
      },
      "geometry": {
        "type": "Point",
        "coordinates": [
          77.1830335,
          28.4318379
        ]
      },
      "id": "way/25524691"
    },
    {
      "type": "Feature",
      "properties": {
        "@id": "way/25524692",
        "alt_name": "Chhattarpur Main Road",
        "highway": "secondary",
        "lanes": "2",
        "maxspeed": "60",
        "name": "Sant Shri Nagpal Marg",
        "oneway": "yes",
        "short_name": "SSN Marg",
        "surface": "asphalt",
        "@geometry": "center"
      },
      "geometry": {
        "type": "Point",
        "coordinates": [
          77.1799123,
          28.4993176
        ]
      },
      "id": "way/25524692"
    },
    {
      "type": "Feature",
      "properties": {
        "@id": "way/25524703",
        "highway": "secondary",
        "oneway": "yes",
        "@geometry": "center"
      },
      "geometry": {
        "type": "Point",
        "coordinates": [
          77.0874857,
          28.5390875
        ]
      },
      "id": "way/25524703"
    },
    {
      "type": "Feature",
      "properties": {
        "@id": "way/25524729",
        "highway": "secondary",
        "lanes": "2",
        "@geometry": "center"
      },
      "geometry": {
        "type": "Point",
        "coordinates": [
          77.0003546,
          28.4218542
        ]
      },
      "id": "way/25524729"
    },
    {
      "type": "Feature",
      "properties": {
        "@id": "way/25524735",
        "highway": "secondary",
        "lanes": "3",
        "maxspeed": "50",
        "oneway": "yes",
        "@geometry": "center"
      },
      "geometry": {
        "type": "Point",
        "coordinates": [
          77.0266924,
          28.428922
        ]
      },
      "id": "way/25524735"
    },
    {
      "type": "Feature",
      "properties": {
        "@id": "way/26582635",
        "highway": "secondary",
        "lane_markings": "no",
        "name": "Jawaharlal Nehru Marg",
        "name:etymology:wikidata": "Q1047",
        "oneway": "yes",
        "surface": "asphalt",
        "@geometry": "center"
      },
      "geometry": {
        "type": "Point",
        "coordinates": [
          77.244452,
          28.6398857
        ]
      },
      "id": "way/26582635"
    },
    {
      "type": "Feature",
      "properties": {
        "@id": "way/26810158",
        "highway": "secondary",
        "lanes": "2",
        "name": "Major District Road 133",
        "oneway": "no",
        "ref": "MDR133",
        "surface": "asphalt",
        "@geometry": "center"
      },
      "geometry": {
        "type": "Point",
        "coordinates": [
          77.1391199,
          28.2590723
        ]
      },
      "id": "way/26810158"
    },
    {
      "type": "Feature",
      "properties": {
        "@id": "way/27007327",
        "highway": "secondary",
        "lanes": "2",
        "maxspeed": "50",
        "name": "Sector Road",
        "oneway": "yes",
        "ref": "Sector Road",
        "surface": "asphalt",
        "@geometry": "center"
      },
      "geometry": {
        "type": "Point",
        "coordinates": [
          77.0776791,
          28.4465484
        ]
      },
      "id": "way/27007327"
    },
    {
      "type": "Feature",
      "properties": {
        "@id": "way/27061753",
        "highway": "secondary",
        "maxspeed": "40",
        "name": "South City II",
        "oneway": "yes",
        "@geometry": "center"
      },
      "geometry": {
        "type": "Point",
        "coordinates": [
          77.0429031,
          28.4179069
        ]
      },
      "id": "way/27061753"
    },
    {
      "type": "Feature",
      "properties": {
        "@id": "way/27188299",
        "highway": "secondary",
        "junction": "roundabout",
        "lanes": "2",
        "maxspeed": "30",
        "name": "AIT Chowk",
        "oneway": "yes",
        "@geometry": "center"
      },
      "geometry": {
        "type": "Point",
        "coordinates": [
          77.1052711,
          28.431289
        ]
      },
      "id": "way/27188299"
    },
    {
      "type": "Feature",
      "properties": {
        "@id": "way/27188302",
        "highway": "secondary",
        "lanes": "2",
        "maxspeed": "80",
        "name": "Golf Course Road",
        "oneway": "yes",
        "@geometry": "center"
      },
      "geometry": {
        "type": "Point",
        "coordinates": [
          77.1050944,
          28.4277324
        ]
      },
      "id": "way/27188302"
    },
    {
      "type": "Feature",
      "properties": {
        "@id": "way/27188305",
        "highway": "secondary",
        "lanes": "3",
        "maxspeed": "50",
        "name": "Golf Course Road",
        "oneway": "yes",
        "@geometry": "center"
      },
      "geometry": {
        "type": "Point",
        "coordinates": [
          77.1053166,
          28.4251724
        ]
      },
      "id": "way/27188305"
    },
    {
      "type": "Feature",
      "properties": {
        "@id": "way/27422249",
        "highway": "secondary",
        "name": "Rajaji Marg",
        "name:etymology:wikidata": "Q378404",
        "name:hi": "राजाजी मार्ग",
        "oneway": "yes",
        "surface": "asphalt",
        "@geometry": "center"
      },
      "geometry": {
        "type": "Point",
        "coordinates": [
          77.2053091,
          28.6043935
        ]
      },
      "id": "way/27422249"
    },
    {
      "type": "Feature",
      "properties": {
        "@id": "way/27422252",
        "highway": "secondary",
        "junction": "roundabout",
        "@geometry": "center"
      },
      "geometry": {
        "type": "Point",
        "coordinates": [
          77.2050098,
          28.6011896
        ]
      },
      "id": "way/27422252"
    },
    {
      "type": "Feature",
      "properties": {
        "@id": "way/27422253",
        "highway": "secondary",
        "junction": "roundabout",
        "@geometry": "center"
      },
      "geometry": {
        "type": "Point",
        "coordinates": [
          77.2054319,
          28.6074737
        ]
      },
      "id": "way/27422253"
    },
    {
      "type": "Feature",
      "properties": {
        "@id": "way/27991173",
        "alt_name": "Ghazipur Road",
        "bridge": "yes",
        "highway": "secondary",
        "lane_markings": "no",
        "layer": "1",
        "name": "Vivek Vihar Railway Flyover",
        "name:etymology:wikidata": "Q1006321",
        "oneway": "yes",
        "ref": "56",
        "surface": "asphalt",
        "@geometry": "center"
      },
      "geometry": {
        "type": "Point",
        "coordinates": [
          77.3229558,
          28.6732661
        ]
      },
      "id": "way/27991173"
    },
    {
      "type": "Feature",
      "properties": {
        "@id": "way/28103660",
        "highway": "secondary",
        "name": "Bhairon Marg",
        "oneway": "yes",
        "sidewalk:left": "yes",
        "@geometry": "center"
      },
      "geometry": {
        "type": "Point",
        "coordinates": [
          77.2437352,
          28.6125394
        ]
      },
      "id": "way/28103660"
    },
    {
      "type": "Feature",
      "properties": {
        "@id": "way/28103794",
        "alt_name": "Minto Road",
        "highway": "secondary",
        "lanes": "2",
        "name": "Vivekanand Marg",
        "name:etymology:wikidata": "Q47478",
        "name:hi": "विवेकानंद मार्ग",
        "oneway": "yes",
        "@geometry": "center"
      },
      "geometry": {
        "type": "Point",
        "coordinates": [
          77.2236817,
          28.6380828
        ]
      },
      "id": "way/28103794"
    },
    {
      "type": "Feature",
      "properties": {
        "@id": "way/28103817",
        "highway": "secondary",
        "name": "Jawaharlal Nehru Marg",
        "name:etymology:wikidata": "Q1047",
        "oneway": "yes",
        "surface": "asphalt",
        "@geometry": "center"
      },
      "geometry": {
        "type": "Point",
        "coordinates": [
          77.2291393,
          28.6416318
        ]
      },
      "id": "way/28103817"
    },
    {
      "type": "Feature",
      "properties": {
        "@id": "way/28103829",
        "highway": "secondary",
        "oneway": "yes",
        "surface": "asphalt",
        "@geometry": "center"
      },
      "geometry": {
        "type": "Point",
        "coordinates": [
          77.2413515,
          28.6277993
        ]
      },
      "id": "way/28103829"
    },
    {
      "type": "Feature",
      "properties": {
        "@id": "way/28103831",
        "highway": "secondary",
        "name": "Vikas Marg",
        "name:hi": "विकास मार्ग",
        "oneway": "yes",
        "@geometry": "center"
      },
      "geometry": {
        "type": "Point",
        "coordinates": [
          77.2474355,
          28.6282466
        ]
      },
      "id": "way/28103831"
    },
    {
      "type": "Feature",
      "properties": {
        "@id": "way/28103850",
        "highway": "secondary",
        "name": "Satyagraha Marg",
        "name:etymology:wikidata": "Q194279",
        "oneway": "yes",
        "@geometry": "center"
      },
      "geometry": {
        "type": "Point",
        "coordinates": [
          77.2498748,
          28.6391523
        ]
      },
      "id": "way/28103850"
    },
    {
      "type": "Feature",
      "properties": {
        "@id": "way/28103851",
        "alt_name": "Delhi Secretariat Road",
        "highway": "secondary",
        "name": "Sachivalaya Road",
        "oneway": "yes",
        "@geometry": "center"
      },
      "geometry": {
        "type": "Point",
        "coordinates": [
          77.2524533,
          28.6322063
        ]
      },
      "id": "way/28103851"
    },
    {
      "type": "Feature",
      "properties": {
        "@id": "way/28103852",
        "highway": "secondary",
        "name": "Asaf Ali Road",
        "name:etymology:wikidata": "Q684845",
        "oneway": "yes",
        "@geometry": "center"
      },
      "geometry": {
        "type": "Point",
        "coordinates": [
          77.2302314,
          28.6428931
        ]
      },
      "id": "way/28103852"
    },
    {
      "type": "Feature",
      "properties": {
        "@id": "way/28103855",
        "highway": "secondary",
        "name": "Asaf Ali Road",
        "name:etymology:wikidata": "Q684845",
        "@geometry": "center"
      },
      "geometry": {
        "type": "Point",
        "coordinates": [
          77.2250834,
          28.6449388
        ]
      },
      "id": "way/28103855"
    },
    {
      "type": "Feature",
      "properties": {
        "@id": "way/28104687",
        "highway": "secondary",
        "lanes": "2",
        "oneway": "yes",
        "smoothness": "excellent",
        "surface": "asphalt",
        "@geometry": "center"
      },
      "geometry": {
        "type": "Point",
        "coordinates": [
          77.3108062,
          28.5444888
        ]
      },
      "id": "way/28104687"
    },
    {
      "type": "Feature",
      "properties": {
        "@id": "way/28121207",
        "highway": "secondary",
        "junction": "roundabout",
        "lane_markings": "no",
        "name": "rotary no 11",
        "surface": "asphalt",
        "@geometry": "center"
      },
      "geometry": {
        "type": "Point",
        "coordinates": [
          77.2174898,
          28.600571
        ]
      },
      "id": "way/28121207"
    },
    {
      "type": "Feature",
      "properties": {
        "@id": "way/28121215",
        "highway": "secondary",
        "lanes": "2",
        "name": "Doctor A.P.J. Abdul Kalam Marg",
        "name:etymology:wikidata": "Q9513",
        "name:hi": "डॉक्टर ए. पी. जे. अब्दुल कलाम मार्ग",
        "oneway": "yes",
        "surface": "asphalt",
        "@geometry": "center"
      },
      "geometry": {
        "type": "Point",
        "coordinates": [
          77.217191,
          28.6002747
        ]
      },
      "id": "way/28121215"
    },
    {
      "type": "Feature",
      "properties": {
        "@id": "way/28121266",
        "highway": "secondary",
        "junction": "roundabout",
        "lane_markings": "no",
        "oneway": "yes",
        "surface": "asphalt",
        "@geometry": "center"
      },
      "geometry": {
        "type": "Point",
        "coordinates": [
          77.2112606,
          28.6040281
        ]
      },
      "id": "way/28121266"
    },
    {
      "type": "Feature",
      "properties": {
        "@id": "way/28121291",
        "highway": "secondary",
        "lanes": "2",
        "name": "Akbar Road",
        "name:etymology:wikidata": "Q8597",
        "name:hi": "अकबर रोड",
        "name:kn": "ಅಕ್ಬರ್ ರಸ್ತೆ",
        "name:ur": "اکبر روڈ",
        "oneway": "yes",
        "surface": "asphalt",
        "@geometry": "center"
      },
      "geometry": {
        "type": "Point",
        "coordinates": [
          77.2145271,
          28.6055854
        ]
      },
      "id": "way/28121291"
    },
    {
      "type": "Feature",
      "properties": {
        "@id": "way/28121435",
        "highway": "secondary",
        "junction": "roundabout",
        "oneway": "yes",
        "@geometry": "center"
      },
      "geometry": {
        "type": "Point",
        "coordinates": [
          77.1971793,
          28.6112688
        ]
      },
      "id": "way/28121435"
    },
    {
      "type": "Feature",
      "properties": {
        "@id": "way/28121442",
        "highway": "secondary",
        "@geometry": "center"
      },
      "geometry": {
        "type": "Point",
        "coordinates": [
          77.1939229,
          28.6110627
        ]
      },
      "id": "way/28121442"
    },
    {
      "type": "Feature",
      "properties": {
        "@id": "way/28121481",
        "highway": "secondary",
        "name": "Rajesh Pilot Marg",
        "name:etymology:wikidata": "Q7286080",
        "old_name": "South End Road",
        "oneway": "yes",
        "surface": "asphalt",
        "@geometry": "center"
      },
      "geometry": {
        "type": "Point",
        "coordinates": [
          77.2217779,
          28.5970726
        ]
      },
      "id": "way/28121481"
    },
    {
      "type": "Feature",
      "properties": {
        "@id": "way/28121535",
        "alt_name": "Lala Lajpat Rai Path",
        "alt_name:etymology:wikidata": "Q1395763",
        "bridge": "yes",
        "highway": "secondary",
        "layer": "1",
        "maxweight:signed": "no",
        "name": "Moolchand Flyover",
        "oneway": "yes",
        "surface": "asphalt",
        "@geometry": "center"
      },
      "geometry": {
        "type": "Point",
        "coordinates": [
          77.2337923,
          28.5656378
        ]
      },
      "id": "way/28121535"
    },
    {
      "type": "Feature",
      "properties": {
        "@id": "way/28121537",
        "highway": "secondary",
        "lanes": "3",
        "name": "Josip Broz Tito Marg",
        "oneway": "yes",
        "surface": "asphalt",
        "@geometry": "center"
      },
      "geometry": {
        "type": "Point",
        "coordinates": [
          77.2303991,
          28.5446063
        ]
      },
      "id": "way/28121537"
    },
    {
      "type": "Feature",
      "properties": {
        "@id": "way/28190265",
        "highway": "secondary",
        "name": "Shankar Road",
        "old_name": "Park Street",
        "oneway": "yes",
        "@geometry": "center"
      },
      "geometry": {
        "type": "Point",
        "coordinates": [
          77.1820458,
          28.6378176
        ]
      },
      "id": "way/28190265"
    },
    {
      "type": "Feature",
      "properties": {
        "@id": "way/28190305",
        "highway": "secondary",
        "name": "Pusa Road",
        "name:ur": "پوسا روڈ",
        "oneway": "yes",
        "surface": "asphalt",
        "@geometry": "center"
      },
      "geometry": {
        "type": "Point",
        "coordinates": [
          77.1791008,
          28.6427863
        ]
      },
      "id": "way/28190305"
    },
    {
      "type": "Feature",
      "properties": {
        "@id": "way/28190334",
        "highway": "secondary",
        "junction": "circular",
        "name": "Choudhary Brahm Prakash Chowk",
        "name:etymology:wikidata": "Q5088068",
        "oneway": "yes",
        "@geometry": "center"
      },
      "geometry": {
        "type": "Point",
        "coordinates": [
          77.1746115,
          28.6420083
        ]
      },
      "id": "way/28190334"
    },
    {
      "type": "Feature",
      "properties": {
        "@id": "way/28190350",
        "highway": "secondary",
        "name": "Patel Road",
        "name:etymology:wikidata": "Q9455",
        "oneway": "yes",
        "@geometry": "center"
      },
      "geometry": {
        "type": "Point",
        "coordinates": [
          77.1698353,
          28.644567
        ]
      },
      "id": "way/28190350"
    },
    {
      "type": "Feature",
      "properties": {
        "@id": "way/28190395",
        "highway": "secondary",
        "name": "Dayal chowk",
        "oneway": "yes",
        "@geometry": "center"
      },
      "geometry": {
        "type": "Point",
        "coordinates": [
          77.197163,
          28.6455647
        ]
      },
      "id": "way/28190395"
    },
    {
      "type": "Feature",
      "properties": {
        "@id": "way/28190501",
        "highway": "secondary",
        "name": "Vande Mataram Marg",
        "name:etymology:wikidata": "Q279417",
        "name:hi": "वंदे मातरम मार्ग",
        "oneway": "yes",
        "@geometry": "center"
      },
      "geometry": {
        "type": "Point",
        "coordinates": [
          77.1830072,
          28.6266941
        ]
      },
      "id": "way/28190501"
    },
    {
      "type": "Feature",
      "properties": {
        "@id": "way/28211346",
        "highway": "secondary",
        "junction": "roundabout",
        "lane_markings": "no",
        "maxspeed:type": "IN:urban",
        "name": "Rotary 10",
        "surface": "asphalt",
        "@geometry": "center"
      },
      "geometry": {
        "type": "Point",
        "coordinates": [
          77.1899249,
          28.5792367
        ]
      },
      "id": "way/28211346"
    },
    {
      "type": "Feature",
      "properties": {
        "@id": "way/28211381",
        "highway": "secondary",
        "junction": "roundabout",
        "lane_markings": "no",
        "oneway": "yes",
        "surface": "asphalt",
        "@geometry": "center"
      },
      "geometry": {
        "type": "Point",
        "coordinates": [
          77.192757,
          28.5852078
        ]
      },
      "id": "way/28211381"
    },
    {
      "type": "Feature",
      "properties": {
        "@id": "way/28211393",
        "alt_name:ur": "مصطفےٰ کمال اتاترک مارگ;مصطفے کمال اتاترک مارگ;مصطفی کمال اتاترک مارگ;مصطفیٰ کمال اتاترک مارگ",
        "highway": "secondary",
        "name": "Mustafa Kemal Ataturk Marg",
        "name:etymology:wikidata": "Q5152",
        "name:ur": "مُصطفےٰ کمال اتاتُرک مارگ",
        "oneway": "yes",
        "surface": "asphalt",
        "@geometry": "center"
      },
      "geometry": {
        "type": "Point",
        "coordinates": [
          77.203037,
          28.596355
        ]
      },
      "id": "way/28211393"
    },
    {
      "type": "Feature",
      "properties": {
        "@id": "way/28211422",
        "highway": "secondary",
        "lane_markings": "no",
        "name": "Simon Bolivar Road",
        "name:etymology:wikidata": "Q8605",
        "name:ur": "سائمن بولیور روڈ",
        "oneway": "yes",
        "surface": "asphalt",
        "@geometry": "center"
      },
      "geometry": {
        "type": "Point",
        "coordinates": [
          77.1806482,
          28.6019623
        ]
      },
      "id": "way/28211422"
    },
    {
      "type": "Feature",
      "properties": {
        "@id": "way/28211431",
        "highway": "secondary",
        "lanes": "2",
        "name": "Panchsheel Marg",
        "name:hi": "पंचशील मार्ग",
        "name:ur": "پنچ شیل مارگ",
        "oneway": "yes",
        "surface": "asphalt",
        "@geometry": "center"
      },
      "geometry": {
        "type": "Point",
        "coordinates": [
          77.1840136,
          28.6001863
        ]
      },
      "id": "way/28211431"
    },
    {
      "type": "Feature",
      "properties": {
        "@id": "way/28211928",
        "highway": "secondary",
        "lit": "yes",
        "name": "Africa Avenue",
        "name:hi": "अफ्रीका एवेन्यू",
        "oneway": "yes",
        "surface": "asphalt",
        "@geometry": "center"
      },
      "geometry": {
        "type": "Point",
        "coordinates": [
          77.1898825,
          28.5743022
        ]
      },
      "id": "way/28211928"
    },
    {
      "type": "Feature",
      "properties": {
        "@id": "way/28483682",
        "highway": "secondary",
        "lanes": "2",
        "oneway": "yes",
        "surface": "asphalt",
        "@geometry": "center"
      },
      "geometry": {
        "type": "Point",
        "coordinates": [
          77.0648934,
          28.4387566
        ]
      },
      "id": "way/28483682"
    },
    {
      "type": "Feature",
      "properties": {
        "@id": "way/28517901",
        "highway": "secondary",
        "name": "South City II",
        "oneway": "yes",
        "@geometry": "center"
      },
      "geometry": {
        "type": "Point",
        "coordinates": [
          77.0453172,
          28.4189036
        ]
      },
      "id": "way/28517901"
    },
    {
      "type": "Feature",
      "properties": {
        "@id": "way/28534416",
        "highway": "secondary",
        "name": "August Kranti Marg",
        "name:etymology:wikidata": "Q1992677",
        "oneway": "yes",
        "@geometry": "center"
      },
      "geometry": {
        "type": "Point",
        "coordinates": [
          77.076837,
          28.4613146
        ]
      },
      "id": "way/28534416"
    },
    {
      "type": "Feature",
      "properties": {
        "@id": "way/28534419",
        "highway": "secondary",
        "lanes": "3",
        "name": "August Kranti Marg",
        "name:etymology:wikidata": "Q1992677",
        "oneway": "yes",
        "surface": "asphalt",
        "@geometry": "center"
      },
      "geometry": {
        "type": "Point",
        "coordinates": [
          77.0825263,
          28.4455259
        ]
      },
      "id": "way/28534419"
    },
    {
      "type": "Feature",
      "properties": {
        "@id": "way/28534425",
        "highway": "secondary",
        "oneway": "yes",
        "@geometry": "center"
      },
      "geometry": {
        "type": "Point",
        "coordinates": [
          77.0558221,
          28.4727176
        ]
      },
      "id": "way/28534425"
    },
    {
      "type": "Feature",
      "properties": {
        "@id": "way/28605687",
        "highway": "secondary",
        "lanes": "3",
        "maxspeed": "50",
        "name": "Golf Course Road",
        "oneway": "yes",
        "surface": "paved",
        "@geometry": "center"
      },
      "geometry": {
        "type": "Point",
        "coordinates": [
          77.102999,
          28.4380485
        ]
      },
      "id": "way/28605687"
    },
    {
      "type": "Feature",
      "properties": {
        "@id": "way/28616699",
        "highway": "secondary",
        "name": "Aurobindo Marg",
        "name:etymology:wikidata": "Q192207",
        "oneway": "yes",
        "surface": "asphalt",
        "@geometry": "center"
      },
      "geometry": {
        "type": "Point",
        "coordinates": [
          77.2098232,
          28.5756066
        ]
      },
      "id": "way/28616699"
    },
    {
      "type": "Feature",
      "properties": {
        "@id": "way/28616703",
        "alt_name": "Vinay Marg",
        "highway": "secondary",
        "name": "Vinay Marg Underpass",
        "name:hi": "विनय मार्ग अंडरपास",
        "oneway": "yes",
        "@geometry": "center"
      },
      "geometry": {
        "type": "Point",
        "coordinates": [
          77.1904088,
          28.5805199
        ]
      },
      "id": "way/28616703"
    },
    {
      "type": "Feature",
      "properties": {
        "@id": "way/28616704",
        "alt_name": "Vinay Marg",
        "highway": "secondary",
        "layer": "-1",
        "name": "Vinay Marg Underpass",
        "name:hi": "विनय मार्ग अंडरपास",
        "oneway": "yes",
        "tunnel": "yes",
        "@geometry": "center"
      },
      "geometry": {
        "type": "Point",
        "coordinates": [
          77.190925,
          28.5816576
        ]
      },
      "id": "way/28616704"
    },
    {
      "type": "Feature",
      "properties": {
        "@id": "way/28616705",
        "alt_name": "Vinay Marg",
        "highway": "secondary",
        "name": "Vinay Marg Underpass",
        "name:hi": "विनय मार्ग अंडरपास",
        "oneway": "yes",
        "@geometry": "center"
      },
      "geometry": {
        "type": "Point",
        "coordinates": [
          77.1902607,
          28.58052
        ]
      },
      "id": "way/28616705"
    },
    {
      "type": "Feature",
      "properties": {
        "@id": "way/28616706",
        "alt_name:ur": "ونئے مارگ",
        "highway": "secondary",
        "name": "Vinay Marg",
        "name:hi": "विनय मार्ग",
        "name:ur": "ونے مارگ",
        "oneway": "yes",
        "@geometry": "center"
      },
      "geometry": {
        "type": "Point",
        "coordinates": [
          77.1922331,
          28.5841884
        ]
      },
      "id": "way/28616706"
    },
    {
      "type": "Feature",
      "properties": {
        "@id": "way/28616707",
        "alt_name": "Vinay Marg",
        "highway": "secondary",
        "layer": "-1",
        "name": "Vinay Marg Underpass",
        "name:hi": "विनय मार्ग अंडरपास",
        "oneway": "yes",
        "tunnel": "yes",
        "@geometry": "center"
      },
      "geometry": {
        "type": "Point",
        "coordinates": [
          77.1908074,
          28.5816731
        ]
      },
      "id": "way/28616707"
    },
    {
      "type": "Feature",
      "properties": {
        "@id": "way/28616709",
        "highway": "secondary",
        "lit": "yes",
        "name": "Africa Avenue",
        "name:hi": "अफ्रीका एवेन्यू",
        "oneway": "yes",
        "sidewalk:left": "yes",
        "surface": "asphalt",
        "@geometry": "center"
      },
      "geometry": {
        "type": "Point",
        "coordinates": [
          77.1875426,
          28.5592939
        ]
      },
      "id": "way/28616709"
    },
    {
      "type": "Feature",
      "properties": {
        "@id": "way/28616711",
        "highway": "secondary",
        "lanes": "2",
        "name": "Akbar Road",
        "name:etymology:wikidata": "Q8597",
        "name:hi": "अकबर रोड",
        "name:kn": "ಅಕ್ಬರ್ ರಸ್ತೆ",
        "name:ur": "اکبر روڈ",
        "oneway": "yes",
        "surface": "asphalt",
        "@geometry": "center"
      },
      "geometry": {
        "type": "Point",
        "coordinates": [
          77.2262023,
          28.6109005
        ]
      },
      "id": "way/28616711"
    },
    {
      "type": "Feature",
      "properties": {
        "@id": "way/28773617",
        "highway": "secondary",
        "maxspeed": "50",
        "maxspeed:hgv": "40",
        "name": "Rao Tula Ram Marg",
        "name:etymology:wikidata": "Q7293696",
        "oneway": "yes",
        "surface": "asphalt",
        "@geometry": "center"
      },
      "geometry": {
        "type": "Point",
        "coordinates": [
          77.1655221,
          28.5738361
        ]
      },
      "id": "way/28773617"
    },
    {
      "type": "Feature",
      "properties": {
        "@id": "way/28773634",
        "alt_name": "Shaheed Bhagat Singh Marg",
        "bridge": "yes",
        "highway": "secondary",
        "layer": "1",
        "name": "Delhi Cantt Railway Junction Flyover",
        "oneway": "yes",
        "@geometry": "center"
      },
      "geometry": {
        "type": "Point",
        "coordinates": [
          77.1147004,
          28.6103112
        ]
      },
      "id": "way/28773634"
    },
    {
      "type": "Feature",
      "properties": {
        "@id": "way/28773641",
        "highway": "secondary",
        "lanes": "2",
        "maxspeed": "50",
        "name": "Shaheed Bhagat Singh Marg",
        "name:en": "Jail Road (or Shaheed Bhagat Singh Marg)",
        "name:etymology:wikidata": "Q377808",
        "name:hi": "शहीद भगत सिंघ मार्ग",
        "note": "I think this road is either additionally or formerly called Jail Road. Needs a survey.",
        "oneway": "yes",
        "surface": "asphalt",
        "@geometry": "center"
      },
      "geometry": {
        "type": "Point",
        "coordinates": [
          77.1011324,
          28.6266391
        ]
      },
      "id": "way/28773641"
    },
    {
      "type": "Feature",
      "properties": {
        "@id": "way/28773642",
        "alt_name": "Shaheed Bhagat Singh Marg",
        "bridge": "yes",
        "highway": "secondary",
        "layer": "1",
        "name": "Mayapuri Industrial Area Road Flyover",
        "oneway": "yes",
        "@geometry": "center"
      },
      "geometry": {
        "type": "Point",
        "coordinates": [
          77.1075274,
          28.6152074
        ]
      },
      "id": "way/28773642"
    },
    {
      "type": "Feature",
      "properties": {
        "@id": "way/28781018",
        "highway": "secondary",
        "name": "Tilak Nagar Round About",
        "oneway": "yes",
        "@geometry": "center"
      },
      "geometry": {
        "type": "Point",
        "coordinates": [
          77.0964807,
          28.6365088
        ]
      },
      "id": "way/28781018"
    },
    {
      "type": "Feature",
      "properties": {
        "@id": "way/28846420",
        "highway": "secondary",
        "name": "Shankar Chowk Road",
        "oneway": "yes",
        "@geometry": "center"
      },
      "geometry": {
        "type": "Point",
        "coordinates": [
          77.0841272,
          28.5063581
        ]
      },
      "id": "way/28846420"
    },
    {
      "type": "Feature",
      "properties": {
        "@id": "way/29530408",
        "highway": "secondary",
        "lanes": "1",
        "maxspeed": "50",
        "maxspeed:hgv": "40",
        "name": "Shaheed Jeet Singh Marg",
        "name:ur": "شہید جیت سنگھ مارگ",
        "oneway": "yes",
        "sidewalk:left": "yes",
        "surface": "asphalt",
        "@geometry": "center"
      },
      "geometry": {
        "type": "Point",
        "coordinates": [
          77.1926328,
          28.5380092
        ]
      },
      "id": "way/29530408"
    },
    {
      "type": "Feature",
      "properties": {
        "@id": "way/29530426",
        "highway": "secondary",
        "maxspeed": "30",
        "name": "Basant Kaur Marg",
        "oneway": "yes",
        "@geometry": "center"
      },
      "geometry": {
        "type": "Point",
        "coordinates": [
          77.2058066,
          28.5347933
        ]
      },
      "id": "way/29530426"
    },
    {
      "type": "Feature",
      "properties": {
        "@id": "way/30062669",
        "highway": "secondary",
        "name": "Park Hospital Road",
        "oneway": "yes",
        "width": "4",
        "@geometry": "center"
      },
      "geometry": {
        "type": "Point",
        "coordinates": [
          77.048594,
          28.4199607
        ]
      },
      "id": "way/30062669"
    },
    {
      "type": "Feature",
      "properties": {
        "@id": "way/30443392",
        "highway": "secondary",
        "name": "Old Delhi Gurgaon Road",
        "oneway": "yes",
        "surface": "asphalt",
        "@geometry": "center"
      },
      "geometry": {
        "type": "Point",
        "coordinates": [
          77.0423801,
          28.4738865
        ]
      },
      "id": "way/30443392"
    },
    {
      "type": "Feature",
      "properties": {
        "@id": "way/31058500",
        "highway": "secondary",
        "name": "Pusa Road",
        "name:ur": "پوسا روڈ",
        "oneway": "yes",
        "@geometry": "center"
      },
      "geometry": {
        "type": "Point",
        "coordinates": [
          77.1902317,
          28.6441299
        ]
      },
      "id": "way/31058500"
    },
    {
      "type": "Feature",
      "properties": {
        "@id": "way/31058505",
        "highway": "secondary",
        "name": "Link Road",
        "name:hi": "लिंक रोड",
        "oneway": "yes",
        "@geometry": "center"
      },
      "geometry": {
        "type": "Point",
        "coordinates": [
          77.2004522,
          28.6442306
        ]
      },
      "id": "way/31058505"
    },
    {
      "type": "Feature",
      "properties": {
        "@id": "way/31058508",
        "highway": "secondary",
        "motorroad": "no",
        "name": "Panchkuian Road",
        "oneway": "yes",
        "@geometry": "center"
      },
      "geometry": {
        "type": "Point",
        "coordinates": [
          77.2064308,
          28.6403553
        ]
      },
      "id": "way/31058508"
    },
    {
      "type": "Feature",
      "properties": {
        "@id": "way/31058510",
        "highway": "secondary",
        "lanes": "3",
        "motorroad": "no",
        "name": "Panchkuian Road",
        "oneway": "yes",
        "surface": "asphalt",
        "@geometry": "center"
      },
      "geometry": {
        "type": "Point",
        "coordinates": [
          77.2066779,
          28.640409
        ]
      },
      "id": "way/31058510"
    },
    {
      "type": "Feature",
      "properties": {
        "@id": "way/31060395",
        "highway": "secondary",
        "lanes": "3",
        "motorroad": "no",
        "name": "Panchkuian Road",
        "name:hi": "पंचकुइयाँ रोड",
        "oneway": "yes",
        "surface": "asphalt",
        "@geometry": "center"
      },
      "geometry": {
        "type": "Point",
        "coordinates": [
          77.2045559,
          28.6420461
        ]
      },
      "id": "way/31060395"
    },
    {
      "type": "Feature",
      "properties": {
        "@id": "way/31097500",
        "fixme": "road changed, need a remap",
        "highway": "secondary",
        "lanes": "4",
        "oneway": "yes",
        "surface": "asphalt",
        "@geometry": "center"
      },
      "geometry": {
        "type": "Point",
        "coordinates": [
          77.110444,
          28.5462256
        ]
      },
      "id": "way/31097500"
    },
    {
      "type": "Feature",
      "properties": {
        "@id": "way/31756483",
        "alt_name": "Aurobindo Marg",
        "alt_name:etymology:wikidata": "Q192207",
        "bridge": "yes",
        "highway": "secondary",
        "layer": "1",
        "maxweight:signed": "no",
        "name": "Aurobindo Marg Flyover",
        "oneway": "yes",
        "surface": "asphalt",
        "@geometry": "center"
      },
      "geometry": {
        "type": "Point",
        "coordinates": [
          77.2117461,
          28.580319
        ]
      },
      "id": "way/31756483"
    },
    {
      "type": "Feature",
      "properties": {
        "@id": "way/31756484",
        "highway": "secondary",
        "lanes": "3",
        "name": "Aurobindo Marg",
        "name:etymology:wikidata": "Q192207",
        "name:hi": "अरविंद मार्ग",
        "oneway": "yes",
        "surface": "asphalt",
        "@geometry": "center"
      },
      "geometry": {
        "type": "Point",
        "coordinates": [
          77.2125959,
          28.586474
        ]
      },
      "id": "way/31756484"
    },
    {
      "type": "Feature",
      "properties": {
        "@id": "way/31756485",
        "highway": "secondary",
        "name": "Aurobindo Marg",
        "name:etymology:wikidata": "Q192207",
        "oneway": "yes",
        "surface": "asphalt",
        "@geometry": "center"
      },
      "geometry": {
        "type": "Point",
        "coordinates": [
          77.20985,
          28.5746509
        ]
      },
      "id": "way/31756485"
    },
    {
      "type": "Feature",
      "properties": {
        "@id": "way/31756488",
        "highway": "secondary",
        "oneway": "yes",
        "surface": "asphalt",
        "@geometry": "center"
      },
      "geometry": {
        "type": "Point",
        "coordinates": [
          77.1980861,
          28.6233054
        ]
      },
      "id": "way/31756488"
    },
    {
      "type": "Feature",
      "properties": {
        "@id": "way/31756489",
        "highway": "secondary",
        "lanes": "2",
        "name": "Kumaraswami Kamaraj Marg",
        "name:etymology:wikidata": "Q522048",
        "oneway": "yes",
        "short_name": "K. Kamaraj Marg",
        "@geometry": "center"
      },
      "geometry": {
        "type": "Point",
        "coordinates": [
          77.2091275,
          28.6093515
        ]
      },
      "id": "way/31756489"
    },
    {
      "type": "Feature",
      "properties": {
        "@id": "way/31756498",
        "highway": "secondary",
        "lanes": "2",
        "name": "Lal Bahadur Shastri Marg",
        "name:etymology:wikidata": "Q244689",
        "name:hi": "लाल बहादुर शास्त्री मार्ग",
        "oneway": "yes",
        "surface": "asphalt",
        "@geometry": "center"
      },
      "geometry": {
        "type": "Point",
        "coordinates": [
          77.2289377,
          28.5218654
        ]
      },
      "id": "way/31756498"
    },
    {
      "type": "Feature",
      "properties": {
        "@id": "way/31756510",
        "alt_name": "Press Enclave Road",
        "highway": "secondary",
        "lanes": "2",
        "name": "Pandit Trilok Chandra Sharma Marg",
        "oneway": "yes",
        "@geometry": "center"
      },
      "geometry": {
        "type": "Point",
        "coordinates": [
          77.2116393,
          28.5286719
        ]
      },
      "id": "way/31756510"
    },
    {
      "type": "Feature",
      "properties": {
        "@id": "way/31756515",
        "highway": "secondary",
        "maxspeed": "30",
        "name": "Basant Kaur Marg",
        "oneway": "yes",
        "@geometry": "center"
      },
      "geometry": {
        "type": "Point",
        "coordinates": [
          77.2066286,
          28.5342057
        ]
      },
      "id": "way/31756515"
    },
    {
      "type": "Feature",
      "properties": {
        "@id": "way/31756516",
        "alt_name": "Press Enclave Road",
        "highway": "secondary",
        "lanes": "3",
        "name": "Pandit Trilok Chandra Sharma Marg",
        "oneway": "yes",
        "surface": "asphalt",
        "@geometry": "center"
      },
      "geometry": {
        "type": "Point",
        "coordinates": [
          77.2281151,
          28.5322309
        ]
      },
      "id": "way/31756516"
    },
    {
      "type": "Feature",
      "properties": {
        "@id": "way/31756736",
        "highway": "secondary",
        "name": "GT Karnal road",
        "oneway": "yes",
        "@geometry": "center"
      },
      "geometry": {
        "type": "Point",
        "coordinates": [
          77.1923917,
          28.6896348
        ]
      },
      "id": "way/31756736"
    },
    {
      "type": "Feature",
      "properties": {
        "@id": "way/31816417",
        "highway": "secondary",
        "oneway": "yes",
        "@geometry": "center"
      },
      "geometry": {
        "type": "Point",
        "coordinates": [
          77.0690542,
          28.5760334
        ]
      },
      "id": "way/31816417"
    },
    {
      "type": "Feature",
      "properties": {
        "@id": "way/31950680",
        "highway": "secondary",
        "oneway": "yes",
        "@geometry": "center"
      },
      "geometry": {
        "type": "Point",
        "coordinates": [
          77.0677653,
          28.5841127
        ]
      },
      "id": "way/31950680"
    },
    {
      "type": "Feature",
      "properties": {
        "@id": "way/31950713",
        "highway": "secondary",
        "name": "Road 210",
        "oneway": "yes",
        "@geometry": "center"
      },
      "geometry": {
        "type": "Point",
        "coordinates": [
          77.0527393,
          28.5698374
        ]
      },
      "id": "way/31950713"
    },
    {
      "type": "Feature",
      "properties": {
        "@id": "way/31978109",
        "highway": "secondary",
        "name": "Old Delhi Gurgaon Road",
        "oneway": "yes",
        "surface": "asphalt",
        "@geometry": "center"
      },
      "geometry": {
        "type": "Point",
        "coordinates": [
          77.0623547,
          28.4964776
        ]
      },
      "id": "way/31978109"
    },
    {
      "type": "Feature",
      "properties": {
        "@id": "way/32051781",
        "highway": "secondary",
        "lanes": "3",
        "oneway": "yes",
        "surface": "asphalt",
        "@geometry": "center"
      },
      "geometry": {
        "type": "Point",
        "coordinates": [
          77.1136906,
          28.5372099
        ]
      },
      "id": "way/32051781"
    },
    {
      "type": "Feature",
      "properties": {
        "@id": "way/32905262",
        "highway": "secondary",
        "lane_markings": "no",
        "name": "Tees January Road",
        "oneway": "yes",
        "surface": "asphalt",
        "@geometry": "center"
      },
      "geometry": {
        "type": "Point",
        "coordinates": [
          77.2171616,
          28.6007662
        ]
      },
      "id": "way/32905262"
    },
    {
      "type": "Feature",
      "properties": {
        "@id": "way/34404739",
        "highway": "secondary",
        "name": "Shankar Road",
        "old_name": "Park Street",
        "oneway": "yes",
        "@geometry": "center"
      },
      "geometry": {
        "type": "Point",
        "coordinates": [
          77.1922957,
          28.6302372
        ]
      },
      "id": "way/34404739"
    },
    {
      "type": "Feature",
      "properties": {
        "@id": "way/34404758",
        "highway": "secondary",
        "lanes": "2",
        "name": "Sardar Patel Marg",
        "name:etymology:wikidata": "Q9455",
        "name:hi": "सरदार पटेल मार्ग",
        "name:ur": "سردار پٹیل مارگ",
        "oneway": "yes",
        "surface": "asphalt",
        "@geometry": "center"
      },
      "geometry": {
        "type": "Point",
        "coordinates": [
          77.1745314,
          28.5987724
        ]
      },
      "id": "way/34404758"
    },
    {
      "type": "Feature",
      "properties": {
        "@id": "way/34404761",
        "bridge": "yes",
        "highway": "secondary",
        "layer": "1",
        "maxheight:signed": "no",
        "name": "Dhaula Kuan Flyover",
        "name:etymology:wikidata": "Q5269440",
        "old_ref": "NH8",
        "oneway": "yes",
        "surface": "asphalt",
        "@geometry": "center"
      },
      "geometry": {
        "type": "Point",
        "coordinates": [
          77.1665067,
          28.594553
        ]
      },
      "id": "way/34404761"
    },
    {
      "type": "Feature",
      "properties": {
        "@id": "way/34940736",
        "highway": "secondary",
        "lanes": "2",
        "maxspeed": "40",
        "oneway": "yes",
        "@geometry": "center"
      },
      "geometry": {
        "type": "Point",
        "coordinates": [
          77.1164782,
          28.5438158
        ]
      },
      "id": "way/34940736"
    },
    {
      "type": "Feature",
      "properties": {
        "@id": "way/34940853",
        "alt_name": "Deshbandhu Gupta Road",
        "highway": "secondary",
        "name": "New Delhi Railway Station Flyover",
        "name:etymology:wikidata": "Q15649302",
        "oneway": "yes",
        "surface": "asphalt",
        "@geometry": "center"
      },
      "geometry": {
        "type": "Point",
        "coordinates": [
          77.2223008,
          28.6449621
        ]
      },
      "id": "way/34940853"
    },
    {
      "type": "Feature",
      "properties": {
        "@id": "way/34941170",
        "alt_name": "Ghazipur Road",
        "bridge": "yes",
        "highway": "secondary",
        "lane_markings": "no",
        "lanes": "2",
        "layer": "1",
        "name": "Anand Vihar Railway Terminal Flyover",
        "name:etymology:wikidata": "Q1006321",
        "oneway": "yes",
        "ref": "56",
        "surface": "asphalt",
        "@geometry": "center"
      },
      "geometry": {
        "type": "Point",
        "coordinates": [
          77.3192174,
          28.6538898
        ]
      },
      "id": "way/34941170"
    },
    {
      "type": "Feature",
      "properties": {
        "@id": "way/35142651",
        "highway": "secondary",
        "lanes": "2",
        "name": "Samaspur Avenue",
        "oneway": "yes",
        "surface": "asphalt",
        "@geometry": "center"
      },
      "geometry": {
        "type": "Point",
        "coordinates": [
          77.0700146,
          28.4255345
        ]
      },
      "id": "way/35142651"
    },
    {
      "type": "Feature",
      "properties": {
        "@id": "way/35152847",
        "highway": "secondary",
        "name": "Paschimi Marg",
        "oneway": "no",
        "@geometry": "center"
      },
      "geometry": {
        "type": "Point",
        "coordinates": [
          77.1595863,
          28.5654859
        ]
      },
      "id": "way/35152847"
    },
    {
      "type": "Feature",
      "properties": {
        "@id": "way/35152848",
        "highway": "secondary",
        "name": "Poorvi Marg",
        "name:hi": "पूर्वी मार्ग",
        "oneway": "yes",
        "@geometry": "center"
      },
      "geometry": {
        "type": "Point",
        "coordinates": [
          77.1566901,
          28.5611829
        ]
      },
      "id": "way/35152848"
    },
    {
      "type": "Feature",
      "properties": {
        "@id": "way/35152874",
        "access": "military",
        "highway": "secondary",
        "name": "Arjan Path",
        "oneway": "yes",
        "@geometry": "center"
      },
      "geometry": {
        "type": "Point",
        "coordinates": [
          77.1539988,
          28.5879925
        ]
      },
      "id": "way/35152874"
    },
    {
      "type": "Feature",
      "properties": {
        "@id": "way/35152876",
        "access": "military",
        "highway": "secondary",
        "name": "Arjan Path",
        "oneway": "yes",
        "@geometry": "center"
      },
      "geometry": {
        "type": "Point",
        "coordinates": [
          77.1510992,
          28.5824592
        ]
      },
      "id": "way/35152876"
    },
    {
      "type": "Feature",
      "properties": {
        "@id": "way/35152880",
        "access": "military",
        "highway": "secondary",
        "oneway": "yes",
        "@geometry": "center"
      },
      "geometry": {
        "type": "Point",
        "coordinates": [
          77.1592086,
          28.5834671
        ]
      },
      "id": "way/35152880"
    },
    {
      "type": "Feature",
      "properties": {
        "@id": "way/35152881",
        "access": "military",
        "highway": "secondary",
        "oneway": "yes",
        "@geometry": "center"
      },
      "geometry": {
        "type": "Point",
        "coordinates": [
          77.1570981,
          28.5879441
        ]
      },
      "id": "way/35152881"
    },
    {
      "type": "Feature",
      "properties": {
        "@id": "way/35306917",
        "highway": "secondary",
        "lanes": "3",
        "name": "Road 224",
        "oneway": "yes",
        "@geometry": "center"
      },
      "geometry": {
        "type": "Point",
        "coordinates": [
          77.0614857,
          28.5817201
        ]
      },
      "id": "way/35306917"
    },
    {
      "type": "Feature",
      "properties": {
        "@id": "way/35306919",
        "highway": "secondary",
        "oneway": "yes",
        "@geometry": "center"
      },
      "geometry": {
        "type": "Point",
        "coordinates": [
          77.0608185,
          28.5584687
        ]
      },
      "id": "way/35306919"
    },
    {
      "type": "Feature",
      "properties": {
        "@id": "way/35307401",
        "highway": "secondary",
        "oneway": "yes",
        "@geometry": "center"
      },
      "geometry": {
        "type": "Point",
        "coordinates": [
          77.0765212,
          28.5417402
        ]
      },
      "id": "way/35307401"
    },
    {
      "type": "Feature",
      "properties": {
        "@id": "way/35308149",
        "highway": "secondary",
        "name": "Road 210",
        "oneway": "yes",
        "@geometry": "center"
      },
      "geometry": {
        "type": "Point",
        "coordinates": [
          77.058051,
          28.5661896
        ]
      },
      "id": "way/35308149"
    },
    {
      "type": "Feature",
      "properties": {
        "@id": "way/35308150",
        "highway": "secondary",
        "oneway": "yes",
        "@geometry": "center"
      },
      "geometry": {
        "type": "Point",
        "coordinates": [
          77.0689431,
          28.5761039
        ]
      },
      "id": "way/35308150"
    },
    {
      "type": "Feature",
      "properties": {
        "@id": "way/35308151",
        "highway": "secondary",
        "lanes": "3",
        "name": "Rd. No. 224",
        "oneway": "yes",
        "@geometry": "center"
      },
      "geometry": {
        "type": "Point",
        "coordinates": [
          77.0674093,
          28.588463
        ]
      },
      "id": "way/35308151"
    },
    {
      "type": "Feature",
      "properties": {
        "@id": "way/35308225",
        "highway": "secondary",
        "oneway": "yes",
        "@geometry": "center"
      },
      "geometry": {
        "type": "Point",
        "coordinates": [
          77.0451638,
          28.5676249
        ]
      },
      "id": "way/35308225"
    },
    {
      "type": "Feature",
      "properties": {
        "@id": "way/35308226",
        "highway": "secondary",
        "name": "Road 205",
        "oneway": "yes",
        "@geometry": "center"
      },
      "geometry": {
        "type": "Point",
        "coordinates": [
          77.0512112,
          28.5816572
        ]
      },
      "id": "way/35308226"
    },
    {
      "type": "Feature",
      "properties": {
        "@id": "way/35308227",
        "highway": "secondary",
        "name": "Road 224",
        "oneway": "yes",
        "@geometry": "center"
      },
      "geometry": {
        "type": "Point",
        "coordinates": [
          77.05483,
          28.5737142
        ]
      },
      "id": "way/35308227"
    },
    {
      "type": "Feature",
      "properties": {
        "@id": "way/35308228",
        "highway": "secondary",
        "name": "Road 205",
        "oneway": "yes",
        "@geometry": "center"
      },
      "geometry": {
        "type": "Point",
        "coordinates": [
          77.0542471,
          28.5756365
        ]
      },
      "id": "way/35308228"
    },
    {
      "type": "Feature",
      "properties": {
        "@id": "way/35308230",
        "highway": "secondary",
        "name": "Road 221",
        "oneway": "yes",
        "@geometry": "center"
      },
      "geometry": {
        "type": "Point",
        "coordinates": [
          77.0579685,
          28.5917163
        ]
      },
      "id": "way/35308230"
    },
    {
      "type": "Feature",
      "properties": {
        "@id": "way/35308232",
        "bridge": "yes",
        "highway": "secondary",
        "layer": "1",
        "name": "Road 205",
        "oneway": "yes",
        "@geometry": "center"
      },
      "geometry": {
        "type": "Point",
        "coordinates": [
          77.0416594,
          28.5881385
        ]
      },
      "id": "way/35308232"
    },
    {
      "type": "Feature",
      "properties": {
        "@id": "way/35308233",
        "highway": "secondary",
        "name": "Road 205",
        "oneway": "yes",
        "@geometry": "center"
      },
      "geometry": {
        "type": "Point",
        "coordinates": [
          77.0316822,
          28.593283
        ]
      },
      "id": "way/35308233"
    },
    {
      "type": "Feature",
      "properties": {
        "@id": "way/35308234",
        "bridge": "yes",
        "highway": "secondary",
        "layer": "1",
        "name": "Road 205",
        "oneway": "yes",
        "@geometry": "center"
      },
      "geometry": {
        "type": "Point",
        "coordinates": [
          77.041566,
          28.5880517
        ]
      },
      "id": "way/35308234"
    },
    {
      "type": "Feature",
      "properties": {
        "@id": "way/35308284",
        "highway": "secondary",
        "oneway": "yes",
        "@geometry": "center"
      },
      "geometry": {
        "type": "Point",
        "coordinates": [
          77.022951,
          28.6012429
        ]
      },
      "id": "way/35308284"
    },
    {
      "type": "Feature",
      "properties": {
        "@id": "way/35310551",
        "highway": "secondary",
        "@geometry": "center"
      },
      "geometry": {
        "type": "Point",
        "coordinates": [
          76.908425,
          28.5467171
        ]
      },
      "id": "way/35310551"
    },
    {
      "type": "Feature",
      "properties": {
        "@id": "way/35310552",
        "highway": "secondary",
        "name": "अमर शहीद कैप्टन पृथ्वी सिंह डागर मार्ग",
        "@geometry": "center"
      },